[{"id":1,"state":"Buenos Aires","city":"Avellaneda","latitude":"-34.661075","longitude":"-58.366973","cases":53,"intensity":1},{"id":2,"state":"Buenos Aires","city":"Berazategui","latitude":"-34.762001","longitude":"-58.211296","cases":5,"intensity":0},{"id":3,"state":"Buenos Aires","city":"Ezeiza","latitude":"-34.853732","longitude":"-58.522861","cases":2,"intensity":0},{"id":4,"state":"Buenos Aires","city":"Florencio Varel","latitude":"-34.796580","longitude":"-58.276012","cases":2,"intensity":0},{"id":5,"state":"Buenos Aires","city":"General San Mar","latitude":"-34.575752","longitude":"-58.537096","cases":12,"intensity":0},{"id":6,"state":"Buenos Aires","city":"Ituzaingó","latitude":"-34.657024","longitude":"-58.675397","cases":28,"intensity":1},{"id":7,"state":"Buenos Aires","city":"La Matanza","latitude":"34.6775894","longitude":"-58.561691","cases":35,"intensity":1},{"id":8,"state":"Buenos Aires","city":"La Plata","latitude":"-34.920494","longitude":"-57.953565","cases":1,"intensity":0},{"id":9,"state":"Buenos Aires","city":"Lanús","latitude":"-34.699479","longitude":"-58.392079","cases":6,"intensity":0},{"id":10,"state":"Buenos Aires","city":"Lomas de Zamora","latitude":"-34.761182","longitude":"-58.430247","cases":10,"intensity":0},{"id":11,"state":"Buenos Aires","city":"Merlo","latitude":"-34.668500","longitude":"-58.728248","cases":4,"intensity":0},{"id":12,"state":"Buenos Aires","city":"Moron","latitude":"-34.655861","longitude":"-58.616721","cases":9,"intensity":0},{"id":13,"state":"Buenos Aires","city":"Necochea","latitude":"-38.554496","longitude":"-58.739608","cases":1,"intensity":0},{"id":14,"state":"Buenos Aires","city":"Pergamino","latitude":"-33.891283","longitude":"-60.574599","cases":2,"intensity":0},{"id":15,"state":"Buenos Aires","city":"Quilmes","latitude":"-34.720633","longitude":"-58.254605","cases":26,"intensity":1},{"id":16,"state":"Buenos Aires","city":"San Miguel","latitude":"-34.543055","longitude":"-58.711857","cases":1,"intensity":0},{"id":17,"state":"Buenos Aires","city":"Tres de Febrero","latitude":"-34.613847","longitude":"-58.542955","cases":6,"intensity":0},{"id":18,"state":"Buenos Aires","city":"Vicente López","latitude":"-34.528120","longitude":"-58.473816","cases":1,"intensity":0},{"id":19,"state":"CABA","city":"COMUNA 1","latitude":"-34.607922","longitude":"-58.365985","cases":4,"intensity":0},{"id":20,"state":"CABA","city":"COMUNA 10","latitude":"-34.627334","longitude":"-58.502970","cases":5,"intensity":0},{"id":21,"state":"CABA","city":"COMUNA 11","latitude":"-34.610661","longitude":"-58.514393","cases":1,"intensity":0},{"id":22,"state":"CABA","city":"COMUNA 12","latitude":"-34.564219","longitude":"-58.491548","cases":4,"intensity":0},{"id":23,"state":"CABA","city":"COMUNA 14","latitude":"-34.578065","longitude":"-58.426531","cases":2,"intensity":0},{"id":24,"state":"CABA","city":"COMUNA 15","latitude":"-34.594296","longitude":"-58.457290","cases":4,"intensity":0},{"id":25,"state":"CABA","city":"COMUNA 2","latitude":"-34.587382","longitude":"-58.397276","cases":2,"intensity":0},{"id":26,"state":"CABA","city":"COMUNA 3","latitude":"-34.617773","longitude":"-58.400216","cases":21,"intensity":1},{"id":27,"state":"CABA","city":"COMUNA 4","latitude":"-34.644379","longitude":"-58.388805","cases":74,"intensity":2},{"id":28,"state":"CABA","city":"COMUNA 5","latitude":"-34.616041","longitude":"-58.420189","cases":2,"intensity":0},{"id":29,"state":"CABA","city":"COMUNA 6","latitude":"-34.620927","longitude":"-58.445873","cases":1,"intensity":0},{"id":30,"state":"CABA","city":"COMUNA 7","latitude":"-34.640860","longitude":"-58.445873","cases":2,"intensity":0},{"id":31,"state":"CABA","city":"COMUNA 8","latitude":"-34.674031","longitude":"-58.457290","cases":3,"intensity":0},{"id":32,"state":"CABA","city":"COMUNA 9","latitude":"-34.653967","longitude":"-58.491548","cases":8,"intensity":0},{"id":33,"state":"Chaco","city":"2 de Abril","latitude":"-27.106528","longitude":"-60.962949","cases":209,"intensity":6},{"id":34,"state":"Chaco","city":"9 de Julio","latitude":"-26.959166","longitude":"-61.280199","cases":3,"intensity":0},{"id":35,"state":"Chaco","city":"Bermejo","latitude":"-26.858511","longitude":"-58.828961","cases":5,"intensity":0},{"id":36,"state":"Chaco","city":"CHACABUCO","latitude":"-27.114871","longitude":"-61.303524","cases":172,"intensity":5},{"id":37,"state":"Chaco","city":"Comandante Fern","latitude":"-26.738726","longitude":"-60.489229","cases":4,"intensity":0},{"id":38,"state":"Chaco","city":"Fray Justo Sant","latitude":"-27.806662","longitude":"-61.420201","cases":2,"intensity":0},{"id":39,"state":"Chaco","city":"General Belgran","latitude":"-26.831776","longitude":"-61.093720","cases":121,"intensity":3},{"id":40,"state":"Chaco","city":"General Guemes","latitude":"-25.152261","longitude":"-61.513603","cases":48,"intensity":1},{"id":41,"state":"Chaco","city":"Independencia","latitude":"-26.748431","longitude":"-60.721436","cases":3,"intensity":0},{"id":42,"state":"Chaco","city":"Libertador Gene","latitude":"-26.354535","longitude":"-59.564236","cases":10,"intensity":0},{"id":43,"state":"Chaco","city":"Mayor Luis J. F","latitude":"-27.807712","longitude":"-60.674965","cases":1,"intensity":0},{"id":44,"state":"Chaco","city":"O'Higgins","latitude":"-27.294841","longitude":"-60.674965","cases":19,"intensity":1},{"id":45,"state":"Chaco","city":"San Fernando","latitude":"-27.74898","longitude":"-59.012367","cases":30,"intensity":1},{"id":46,"state":"Chaco","city":"Sargento Cabral","latitude":"-26.812044","longitude":"-59.518155","cases":1,"intensity":0},{"id":47,"state":"Córdoba","city":"Capital","latitude":"-31.420083","longitude":"-64.188776","cases":16,"intensity":0},{"id":48,"state":"Córdoba","city":"Colon","latitude":"-31.168957","longitude":"-64.242480","cases":5,"intensity":0},{"id":49,"state":"Córdoba","city":"Tercero Arriba","latitude":"-32.233642","longitude":"-63.675056","cases":1,"intensity":0},{"id":50,"state":"Corrientes","city":"Capital","latitude":"-27.469213","longitude":"-58.830634","cases":6,"intensity":0},{"id":51,"state":"Corrientes","city":"Saladas","latitude":"-28.255742","longitude":"-58.623356","cases":7,"intensity":0},{"id":52,"state":"Corrientes","city":"Santo Tomé","latitude":"-28.552410","longitude":"-56.045213","cases":1,"intensity":0},{"id":53,"state":"Entre Ríos","city":"Concordia","latitude":"-31.391392","longitude":"-58.017434","cases":1,"intensity":0},{"id":54,"state":"Entre Ríos","city":"Paraná","latitude":"-31.741319","longitude":"-60.511547","cases":3,"intensity":0},{"id":55,"state":"Formosa","city":"Formosa","latitude":"-26.185776","longitude":"-58.175566","cases":21,"intensity":1},{"id":56,"state":"Formosa","city":"Matacos","latitude":"-26.179652","longitude":"-58.193728","cases":4,"intensity":0},{"id":57,"state":"Formosa","city":"PATIÑO","latitude":"-26.185902","longitude":"-58.168843","cases":1,"intensity":0},{"id":58,"state":"Formosa","city":"Ramon Lista","latitude":"-23.107552","longitude":"-62.168857","cases":1,"intensity":0},{"id":59,"state":"Jujuy","city":"El Carmen","latitude":"-24.389345","longitude":"-65.261620","cases":92,"intensity":3},{"id":60,"state":"Jujuy","city":"Ledesma","latitude":"-23.815332","longitude":"-64.792826","cases":210,"intensity":6},{"id":61,"state":"Jujuy","city":"San Pedro","latitude":"-24.231028","longitude":"-64.868305","cases":44,"intensity":1},{"id":62,"state":"Jujuy","city":"Santa Barbara","latitude":"-24.266907","longitude":"-65.205349","cases":1,"intensity":0},{"id":63,"state":"Mendoza","city":"Tunuyan","latitude":"-33.581318","longitude":"-69.015336","cases":1,"intensity":0},{"id":64,"state":"Misiones","city":"Apostoles","latitude":"-27.914155","longitude":"-55.754937","cases":22,"intensity":1},{"id":65,"state":"Misiones","city":"Capital","latitude":"-27.473343","longitude":"-55.891320","cases":103,"intensity":3},{"id":66,"state":"Misiones","city":"Eldorado","latitude":"-26.406882","longitude":"-54.636917","cases":11,"intensity":0},{"id":67,"state":"Misiones","city":"General Manuel","latitude":"-26.076430","longitude":"-53.997677","cases":16,"intensity":0},{"id":68,"state":"Misiones","city":"Guarani","latitude":"-27.524407","longitude":"-55.160177","cases":12,"intensity":0},{"id":69,"state":"Misiones","city":"Iguazú","latitude":"-25.848252","longitude":"-54.346715","cases":98,"intensity":3},{"id":70,"state":"Misiones","city":"Libertador Grl.","latitude":"-26.870961","longitude":"-54.917141","cases":98,"intensity":3},{"id":71,"state":"Misiones","city":"Montecarlo","latitude":"-26.571616","longitude":"-54.741311","cases":1,"intensity":0},{"id":72,"state":"Misiones","city":"San Ignacio","latitude":"-27.257507","longitude":"-55.535404","cases":1,"intensity":0},{"id":73,"state":"Salta","city":"Anta","latitude":"-24.727394","longitude":"-64.195732","cases":34,"intensity":1},{"id":74,"state":"Salta","city":"Capital","latitude":"-24.782126","longitude":"-65.423197","cases":19,"intensity":1},{"id":75,"state":"Salta","city":"Cerrillos","latitude":"-24.895816","longitude":"-65.487116","cases":1,"intensity":0},{"id":76,"state":"Salta","city":"General Guemes","latitude":"-24.667257","longitude":"-65.050064","cases":5,"intensity":0},{"id":77,"state":"Salta","city":"Grl. Jose de Sa","latitude":"-22.78644","longitude":"-63.769538","cases":238,"intensity":7},{"id":78,"state":"Salta","city":"LOS ANDES","latitude":"-24.785757","longitude":"-67.189448","cases":0,"intensity":0},{"id":79,"state":"Salta","city":"Orán","latitude":"-23.128383","longitude":"-64.321698","cases":69,"intensity":2},{"id":80,"state":"Salta","city":"Rivadavia","latitude":"-24.186108","longitude":"-62.884217","cases":40,"intensity":1},{"id":81,"state":"Salta","city":"Rosario de Lerm","latitude":"-24.982910","longitude":"-65.582901","cases":2,"intensity":0},{"id":82,"state":"Salta","city":"Santa Victoria","latitude":"-22.250338","longitude":"-64.966164","cases":1,"intensity":0},{"id":83,"state":"Santa Fe","city":"9 de Julio","latitude":"-28.940316","longitude":"-61.513603","cases":2,"intensity":0},{"id":84,"state":"Santa Fe","city":"Castellanos","latitude":"-30.974859","longitude":"-61.513603","cases":1,"intensity":0},{"id":85,"state":"Santa Fe","city":"Garay","latitude":"-31.049584","longitude":"-60.118479","cases":4,"intensity":0},{"id":86,"state":"Santa Fe","city":"General Obligad","latitude":"-28.729529","longitude":"-59.564236","cases":7,"intensity":0},{"id":87,"state":"Santa Fe","city":"La Capital","latitude":"-31.610657","longitude":"-60.697294","cases":359,"intensity":10},{"id":88,"state":"Santa Fe","city":"Las Colonias","latitude":"-31.555313","longitude":"-61.140319","cases":4,"intensity":0},{"id":89,"state":"Santa Fe","city":"Rosario","latitude":"-32.958702","longitude":"-60.693041","cases":97,"intensity":3},{"id":90,"state":"Santa Fe","city":"San Cristobal","latitude":"-30.311176","longitude":"-61.238526","cases":1,"intensity":0},{"id":91,"state":"Santa Fe","city":"San Jeronimo","latitude":"-32.115802","longitude":"-61.047135","cases":1,"intensity":0},{"id":92,"state":"Santiago del Es","city":"Banda","latitude":"-27.734443","longitude":"-64.241626","cases":4,"intensity":0},{"id":93,"state":"Santiago del Es","city":"Capital","latitude":"-27.783357","longitude":"-64.264167","cases":191,"intensity":5},{"id":94,"state":"Santiago del Es","city":"Río Hondo","latitude":"-27.592906","longitude":"-64.913012","cases":1,"intensity":0},{"id":95,"state":"Santiago del Es","city":"Robles","latitude":"-27.921049","longitude":"-64.109173","cases":1,"intensity":0},{"id":96,"state":"Tucumán","city":"Capital","latitude":"-26.808284","longitude":"-65.217590","cases":1,"intensity":0},{"id":97,"state":"Tucumán","city":"Chicligasta","latitude":"-27.434613","longitude":"-65.163024","cases":1,"intensity":0},{"id":98,"state":"Tucumán","city":"Tafí Viejo","latitude":"-26.732479","longitude":"-65.267028","cases":1,"intensity":0}]